country,city,latitude,longitude
Indonesia,Balekersukamaju,-6.3825,105.8361
China,Ruihong,43.9071313,125.3462629
Portugal,Castelo,41.867116,-8.1991214
Philippines,Bularit,15.5653934,120.6147766
China,Xiangyang,32.009016,112.122426
Japan,Kushima,37.6463835,139.4691244
Canada,Windsor,45.5787215,-72.001055
Indonesia,Watubuku,-8.605,122.743
Norway,Oslo,59.9363422,10.7356301
Japan,Kawagoe,34.9442746,132.4282484
Cambodia,Prey Veng,11.3802442,105.5005483
Seychelles,Anse Royale,-4.7407988,55.5081012
China,Huangbu,23.124134,115.138892
China,Tongjiang,47.642707,132.510919
Sweden,Charlottenberg,59.884842,12.2993128
Brazil,Buriti Bravo,-5.8327847,-43.8356779
Indonesia,Sukodono,-7.394667,112.6737856
Russia,Sosnovka,54.1347287,33.2921685
Philippines,Pinayagan Norte,9.9368373,123.9469641
China,Wan’an,26.458254,114.786182
Mexico,Las Animas,19.2558715,-99.0165468
Indonesia,Cikadondongdesa,-7.3475648,108.1576908
Afghanistan,Qal‘ah-ye Shāhī,34.64921,70.5914
Indonesia,Wadeng,-6.9695439,112.5155694
Ethiopia,Dire Dawa,9.6008747,41.850142
China,Shengli,37.510549,118.325556
Albania,Shushicë,41.0923609,20.1563519
Ukraine,Karlivka,49.4576263,35.1200067
Colombia,Florencia,1.683061,-77.072933
Moldova,Donduşeni,48.1665542,27.6546469
China,Lantian,34.151624,109.323479
Kazakhstan,Ülken,45.2068153,73.9309807
Philippines,Catayauan,18.1590139,121.6539966
Canada,Mont-Saint-Hilaire,45.5599168,-73.2004857
Russia,Markovo,57.315861,107.092445
China,Jiacun,31.2467156,121.445175
Czech Republic,Kamenné Žehrovice,50.1269792,14.0180996
Venezuela,Caucagüito,10.4868673,-66.739712
Canada,Pincher Creek,49.495739,-113.9428983
Czech Republic,Uherský Brod,49.0225427,17.6411818
China,Qujiang,24.682501,113.604535
Spain,"Palmas De Gran Canaria, Las",28.1328796,-15.4393074
China,Zhongshanlu,22.517585,113.39277
France,La Charité-sur-Loire,47.1837657,3.0182755
China,Shatian,22.919769,113.618216
Russia,Vereshchagino,58.0666667,54.6499999
Portugal,São Domingos de Rana,38.7025085,-9.3381698
Philippines,Balayong,13.9192331,121.4256292
Czech Republic,Zruč nad Sázavou,49.740105,15.1060638
China,Nianpan,41.821778,124.048453
Philippines,Pag-asa,14.6020624,121.0161088
Malaysia,Shah Alam,2.9878652,101.549066
Czech Republic,Dobroměřice,50.3700968,13.794744
Nigeria,Sankera,7.5406,9.649249
China,Chigang,23.096432,113.334825
Mongolia,Arvayheer,46.272878,102.7790303
Peru,Palca,-11.3442564,-75.5655147
France,Saint-Priest,45.6739962,4.956609
Serbia,Mošorin,45.2911425,20.1955026
Indonesia,Singgit,-8.154229,111.7778618
Sweden,Västerås,59.6013651,16.4793546
Russia,Kamyzyak,46.1114451,48.0744772
United Kingdom,Normanton,52.643749,-0.622129
China,Sancha,40.570338,116.554665
Sweden,Kungälv,57.8708172,11.9758543
Macedonia,Радолишта,41.16417,20.62333
France,Colombes,48.923882,2.2593884
Slovenia,Solkan,45.9678392,13.6455618
China,Gongchenqiao,30.321469,120.144771
Poland,Międzyrzecz,52.362743,21.0450997
Indonesia,Puspajaya,-7.4133512,108.0687579
Ivory Coast,Katiola,8.1402266,-5.0963141
Albania,Elbasan,41.11023,20.0866554
Indonesia,Lengkongjaya,-7.3522365,108.0450467
Philippines,Santa Monica,10.0342937,126.0415372
China,Tongqiao,23.035191,114.300299
Brazil,Pancas,-19.2234241,-40.8538285
Canada,Havre-Saint-Pierre,50.24342,-63.60264
Brazil,Itaqui,-29.1294007,-56.5481122
Cambodia,Takeo,10.9321519,104.798771
China,Anyu,22.937244,113.384129
Norway,Stavanger,58.9583506,5.7740124
Philippines,Dimiao,9.6037331,124.1518808
Nigeria,Shanga,11.2131346,4.579209
Poland,Stalowa Wola,50.5763759,22.059689
South Africa,Delmas,-25.877477,28.313059
China,Taoyuan,24.9936281,121.3009798
China,Qihama,33.39722,101.956537
France,Rennes,48.1752793,-1.7274799
Philippines,Maño,11.042265,123.9418261
South Korea,Kyosai,34.85028,128.58861
Mexico,San Miguel,19.3579802,-99.0806088
China,Qujiang,24.682501,113.604535
Ivory Coast,Tengrela,10.4819603,-6.4130601
China,Qiaolin,29.6970749,106.6160052
China,Xichehe,29.355908,109.671458
Mexico,El Aguacate,18.855626,-98.189463
Latvia,Priekule,56.4482379,21.5989599
Argentina,Colonia Aurora,24.7762658,-107.4046797
Norfolk Island,Kingston,-29.0563937,167.959588
Poland,Sabnie,52.5005848,22.3071086
Albania,Belsh,40.979512,19.897722
Indonesia,Paleran,-8.2314198,113.4835627
Burkina Faso,Pô,11.1652432,-1.1400998
Portugal,Redondos,38.5691786,-9.0814271
Albania,Pojan,40.7273859,20.8344302
Cape Verde,Vila do Maio,15.1385669,-23.2066909
Egypt,Mashtūl as Sūq,30.3608801,31.3793398
France,Bonneville,46.2983568,-0.8937702
Argentina,San Antonio,-38.0123723,-57.5938573
China,Taishanmiao,34.074131,108.158909
El Salvador,Antiguo Cuscatlán,13.6756725,-89.2514718
Costa Rica,Paquera,9.823961,-84.927454
China,Jiaowei,22.972973,113.561495
Russia,Yermish’,54.76778,42.27111
Poland,Kosów Lacki,52.596028,22.1470031
Netherlands,Almere Haven,52.3382178,5.2172366
China,Xianghua,32.762022,111.709662
Mexico,Hidalgo,19.4416194,-99.2473801
Philippines,Sipocot,13.7643349,122.9760543
France,Fresnes,48.759003,2.323941
China,Hexi,39.109563,117.223371
Philippines,Mainit,9.5403936,125.5240221
Japan,Karasuyama,36.0486399,140.2051504
Myanmar,Pyin Oo Lwin,22.0391773,96.471658
Slovenia,Šentjur,46.218184,15.38742
Russia,Mikhaylovka,55.9835962,37.1465904
Jamaica,Ewarton,18.1752248,-77.0881034
Greece,Vélo,37.9761732,22.7599084
China,Bilian,28.311573,120.562011
Mexico,El Refugio,20.6729456,-103.7379675
China,Ning’an,44.34072,129.4828511
Bulgaria,Razgrad,43.5336719,26.5411165
Pakistan,Ārifwāla,30.6377274,73.0947607
South Korea,Suwon-si,37.2635727,127.0286009
Botswana,Bokaa,-24.42787,26.023656
Germany,Cottbus,51.7941895,14.3056705
Indonesia,Tangguhang,-10.1535,120.6278
Uruguay,Joaquín Suárez,-34.7328945,-56.0305724
Poland,Gozdnica,51.4556245,15.0831462
Afghanistan,Maymana,35.91784,64.7755147
Indonesia,Koten,-8.0989,122.8333
Tunisia,Sbikha,35.9329039,10.0219822
Indonesia,Waerana,-8.4766365,119.8805782
France,Sartrouville,48.9378251,2.1570562
Philippines,Bani,16.1779407,119.8572781
China,Gaoxing,50.4273892,124.1226608
Brazil,Pomerode,-26.7376205,-49.1743626
Ukraine,Voyutychi,49.5508417,23.1084348
Japan,Yuza,39.0483943,139.8738552
Czech Republic,Herálec,49.6870858,15.9920641
Poland,Sokołów Podlaski,52.406614,22.2424971
Sweden,Sundsvall,62.389549,17.313773
China,Jiangyin,31.920658,120.284938
China,Chongxing,29.4315861,106.912251
Indonesia,Cikole,-6.788236,107.6392892
South Africa,Vredefort,-27.0007882,27.3733989
Bosnia and Herzegovina,Banja Luka,44.7721811,17.191
Russia,Shalazhi,43.09476,45.35898
China,Chenfang,27.027081,117.694969
Finland,Jurva,62.8511538,21.7352793
Brazil,Campos Gerais,-21.2370782,-45.7592067
Russia,Nyandoma,61.6614104,40.2019954
Indonesia,Cirangga Kidul,-6.5294,106.1719
Myanmar,Wakema,16.6032044,95.177098
China,Qingfa,18.50831,109.277378
China,Longjin,42.76631,129.427066
Russia,Glyadyanskoye,54.8940073,65.0894647
China,Leicheng,23.48193,109.026675
United States,High Point,36.04,-80
France,Cahors,47.772714,-1.813332
Chile,Rancagua,-34.1701324,-70.7406259
South Africa,Tugela Ferry,-28.7415512,30.461686
Poland,Ołpiny,49.8282067,21.2002807
Brazil,Armação,-21.0209448,-41.1547688
Paraguay,San José,-25.53599,-56.73246
China,Yudaikelike,39.714472,77.750994
Indonesia,Haruman,-7.1260248,107.8909697
Portugal,Vermelha,39.2699174,-9.1052924
Sweden,Uppsala,59.8425242,17.5656915
Serbia,Čajetina,43.7504777,19.7142007
China,Qixia,32.096344,118.909159
Mexico,Lazaro Cardenas,17.9567646,-102.1943485
Mexico,San Francisco,20.8965838,-105.4093552
Argentina,Oro Verde,-31.82451,-60.517846
Indonesia,Tanahmerah,-6.080007,140.276147
Russia,Chaykovskaya,58.1295491,55.5405808
China,Hefu,31.820591,117.227219
Philippines,Lope de Vega,12.3084603,124.6357734
Panama,Capira,8.7600869,-79.8576828
Venezuela,Catia La Mar,10.5894439,-67.0494378
China,Wuyahe,30.592849,114.305539
Russia,Bol’shoye Skuratovo,53.43852,36.84085
Philippines,Paldit,16.16667,120.53333
Czech Republic,Mukařov,50.6471859,14.2963455
Norway,Oslo,59.8435756,10.8173713
France,Massy,46.4830794,4.6072477
United States,Seattle,47.6025001,-122.3385759
Sri Lanka,Ratnapura,6.6814285,80.399764
China,Weihe,44.956193,128.3838321
Indonesia,Trambalan,-6.7597,111.3245
Yemen,Ku‘aydinah,15.8,43.333333
Serbia,Banatsko Karađorđevo,45.5730726,20.5777248
China,Nanchangshan,28.6846153,115.8922746
Indonesia,Barisan,-6.8448925,108.7883125
China,Longyuanba,24.937517,114.455815
Portugal,Quintela,41.3940988,-8.0276048
Philippines,Maduao,7.29417,125.62583
Philippines,Itbayat,20.7236765,121.8097656
United States,New York City,40.7634529,-73.9798808
Colombia,Palmito,9.333659,-75.540823
Indonesia,Balai,0.995919,103.4295033
Philippines,Daguma,14.6141298,121.0143507
France,Cergy-Pontoise,49.039076,2.074954
Philippines,Tapilon,11.276586,124.030409
Canada,High Prairie,55.4334,-116.4858
China,Gao’an,28.441209,115.360554
Trinidad and Tobago,Peñal,10.1684514,-61.4377107
Greece,Vrakháti,37.9578061,22.8039689
Portugal,Montinho,41.1241415,-8.2082378
Brazil,Janaúba,-15.813904,-43.3043938
Brazil,Itajubá,-22.4231821,-45.4535162
China,Baoping,38.874434,115.464589
France,Mérignac,47.9544744,-2.0532343
South Africa,Mount Ayliff,-27.9918685,26.7241905
China,Chayuan,27.716826,112.007114
Poland,Kowale Oleckie,54.126654,22.3618689
Russia,Gadzhiyevo,69.242341,33.3041431
Solomon Islands,Gizo,-8.1058258,156.8349986
Indonesia,Karangduren Dua,-8.0604636,112.6285385
France,Bourgoin-Jallieu,45.5839189,5.2733732
Uzbekistan,Yangiobod,41.1155359,70.1039032
Portugal,Safara,38.111851,-7.2176902
Greece,Arnaía,40.4868316,23.5963957
Czech Republic,Třemošnice,49.8691189,15.5800287
Peru,Junín,-11.335798,-75.3412179
Portugal,Canhestros,38.0361995,-8.2884236
China,Taha Man Zu,47.55728,124.21591
South Africa,Modderfontein,-26.0880026,28.1444516
Russia,Dzhiginka,45.133,37.33826
Poland,Żychlin,52.24396,19.6259601
China,Xialaba,39.596147,112.670816
Russia,Sobinka,56.036667,39.9203466
Portugal,Santiago dos Velhos,38.9492606,-9.1068816
Sweden,Luleå,67.1355975,20.6859936
Belarus,Bal’shavik,52.5645365,30.8769586
Peru,Matahuasi,-11.8920309,-75.3477767
Japan,Saijō,33.8759864,133.1626063
Russia,Is,58.8995628,59.7081271
Myanmar,Myeik,12.4492291,98.6270628
Philippines,Sumalig,7.998611,123.6602783
Poland,Jasienica,49.8376215,18.9439837
China,Damatou,34.429066,117.609916
France,Sarrebourg,48.7336014,7.0523637
Zimbabwe,Lalapanzi,-19.3352322,30.1791357
Djibouti,'Ali Sabieh,11.1491947,42.7124984
Malaysia,Labuan,5.2805802,115.2384663
Greece,Provatás,41.1,23.633333
Oman,Şūr,22.5652759,59.5066376
Malaysia,Ipoh,4.6096768,101.1064003
Colombia,Providencia,13.3875121,-81.3756862
Brazil,Amparo,-22.7064041,-46.7694191
Colombia,Medellín,6.3833462,-75.5858886
Saudi Arabia,Al Qaţīf,26.5764917,49.998236
China,Nanxing,30.798775,121.33638
China,Yedun,26.905819,118.146114
Bangladesh,Lākshām,23.2116858,91.1161166
Luxembourg,Schengen,49.4709886,6.3640878
Brazil,Canela,-29.357495,-50.7832348
Russia,Mikhaylovka,55.9835962,37.1465904
United States,Fresno,29.4743666,-98.5165167
China,Meilin,31.7311971,117.2313179
United States,Charlotte,35.21,-80.69
Indonesia,Karangjaladri,-7.31054,107.77903
China,Yezhu,26.087511,107.924631
Greece,Nidri,38.7099952,20.7141164
China,Jiujiang,29.705077,116.00193
Colombia,Vegachí,6.772879,-74.796476
France,Nantes,47.2550409,-1.5401497
China,Maogou,35.657584,103.307618
Belarus,Slawharad,53.4431223,30.9995629
Tunisia,Chebba,35.23369,11.1107854
Indonesia,Margorejo,-7.3161209,112.7405377
Tunisia,Zaghouan,36.4091188,10.1423172
Indonesia,Krueng Luak,2.8583,97.7578
Ukraine,Berezanka,46.8584087,31.3849652
Guatemala,Ciudad Vieja,14.52309,-90.764589
France,Le Mans,47.9956173,0.1924459
United States,Saint Paul,44.9688472,-93.1315648
Indonesia,Peseng,-7.130192,112.420603
Russia,Shchëkino,56.076372,35.9263157
China,Longfeng,46.562247,125.1353261
Ukraine,Hadyach,50.3678365,33.9796724
China,Xiashuitou,39.50725,112.083556
Ukraine,Yakymivka,46.6974533,35.165005
China,Fucheng,37.868872,116.144417
China,Qihama,33.39722,101.956537
Mongolia,Havtsal,48.6618569,91.339774
Indonesia,Cungking,-8.2138062,114.3521951
Colombia,Magangué,8.9282133,-74.5697617
Kazakhstan,Oral,51.227821,51.3865431
Indonesia,Anto,-6.289662,106.755605
Sweden,Göteborg,57.6902027,11.9070339
China,Jiashan,30.830898,120.92585
Venezuela,Rubio,7.6988579,-72.3607108
South Korea,Kunsan,35.9676772,126.7366293
Ukraine,Nyzhni Sirohozy,46.8485653,34.3804247
Paraguay,Isla Pucú,-25.3088443,-56.9014072
China,Dunhao,31.33343,108.377449
France,Paris 10,43.4945737,5.8978018
Indonesia,Grati Satu,-7.7016409,112.9827091
Brazil,Tanabi,-20.6286479,-49.6546435
Mayotte,Koungou,-12.753316,45.2300515
Indonesia,Batang,-7.0392183,109.9020509
Pakistan,Daultāla,33.2202046,73.165319
China,Erhaodi,41.28102,112.45297
Russia,Pushkin,59.7591906,30.4729492
Sweden,Johanneshov,59.2992508,18.0807417
Canada,Laval,45.5734042,-73.7316825
China,Yangdi,24.9938893,110.4541138
Greece,Rizómata,40.3515428,22.2116432
Colombia,Bello,6.3833462,-75.5858886
Philippines,Lanas,18.1686828,120.7050032
Bosnia and Herzegovina,Prozor,43.8234396,17.5393153
Poland,Osiek,53.1595566,19.3969614
Pakistan,Garhi Khairo,28.2068263,68.3682111
China,Tushi,25.521039,112.309325
Philippines,Piña,14.578621,121.0702405
France,Saint-Brieuc,48.5116663,-2.7393345
Norway,Trondheim,63.4400274,10.4024274
Malaysia,Kangar,6.4387946,100.1947477
China,Wuning,29.256382,115.100568
China,Longtan,25.075123,117.017536
China,Wulan Haye,41.183785,112.375015
France,Tours,47.3892142,0.6942885
Sweden,Västerås,59.6099005,16.5448092
Macedonia,Srbica,41.58806,21.03111
Philippines,Clarin,8.5531389,123.7669004
Sweden,Deje,59.6117063,13.4504935
Denmark,København,55.6646665,12.5436481
China,Yanguan,27.851032,120.120494
China,Jiazhuyuan,29.987954,112.115401
Indonesia,Kertasari,-7.2760371,107.6925674
China,Beishan,28.39895,113.02064
Tanzania,Mtwango,-9.016667,34.8
China,Huoli,34.776765,105.799791
Colombia,Pinillos,8.9245,-74.47033
China,Cihe,35.786026,109.459516
Cyprus,Psevdás,34.9588458,33.466379
Japan,Shizukuishi,39.7007906,140.9596925
Iceland,Höfn,64.1272315,-16.014091
Indonesia,Bojawa,-8.8341,120.9593
Philippines,Nangka,14.6701,121.108226
Kenya,Muhoroni,-0.1566093,35.1983598
Sweden,Uddevalla,58.3505986,11.9490108
Portugal,Carvalheira,41.1039283,-8.2107063
China,Jiahu,33.612843,113.667436
France,Nantes,47.2550409,-1.5401497
China,Xinghua,32.910459,119.85254
Poland,Udanin,51.0377167,16.450466
China,Huangpo,23.106401,113.459749
Russia,Tukan,55.1613358,61.2971487
Sweden,Boden,65.8261477,21.7037935
Nigeria,Saki,8.6725571,3.394332
Finland,Varkaus,62.3316244,27.7461577
Nigeria,Mekkaw,7.45,2.85
El Salvador,Santiago Nonualco,13.5096503,-88.9389921
China,Wangliao,31.7304839,117.3437409
Tajikistan,Isfara,40.1207224,70.6157308
China,Xiangquan,36.756621,104.794074
Japan,Kanekomachi,36.4027362,139.0015333
China,Xikou,29.689847,121.28259
China,Huochezhan,31.247275,121.456178
Netherlands,Oss,51.7610501,5.5510411
Brazil,Guaramirim,-26.4743278,-49.0023
Philippines,Bancal,15.3098003,119.9994908
China,Baoshan,25.112046,99.161761
Russia,Melenki,55.3365242,41.6303343
Peru,Pirca,-11.24674,-76.661598
Portugal,Vila Franca,41.6865621,-8.7534535
Burkina Faso,Tenkodogo,11.7863324,-0.3654204
Nigeria,Zuru,11.4384457,5.2318879
Indonesia,Sebewe,-8.4880061,117.4703209
Russia,Baltiysk,54.658173,19.9090615
China,Yijing,22.555855,114.140113
Bulgaria,Berkovitsa,43.2370452,23.1251092
Colombia,El Playón,7.470498,-73.203211
Afghanistan,Pas Pul,37.4749019,70.6142436
China,Sanxixiang,26.097158,115.308246
Argentina,Tamberías,-31.5868009,-68.5173853
Greece,Míthymna,39.367146,26.1751462
Democratic Republic of the Congo,Mbuji-Mayi,-6.1306709,23.5966577
Japan,Ōgaki,35.0235689,135.971704
New Caledonia,Nouméa,-22.304089,166.447436
South Africa,Senekal,-28.3284196,27.6317494
China,Wangchuanchang,39.159945,117.229277
Indonesia,Karangboyo,-7.1309871,111.591546
United States,Albany,42.722661,-73.8301437
Czech Republic,Nechanice,50.2373675,15.6327653
Pakistan,Tando Jām,25.4219675,68.5142341
Ireland,Monaghan,54.2694844,-7.0943023
Kiribati,Rawannawi Village,2.0516556,173.2633123
Trinidad and Tobago,Paradise,10.6483783,-61.3654991
Iran,Eqlīd,30.9049366,52.6921001
China,Hengfeng,28.407117,117.596452
China,Jiuhua,30.4333333,117.8333333
Portugal,Ribeiro,41.5113285,-8.662365
China,Yinjiang,42.5246357,87.5395855
Slovenia,Šmartno pri Litiji,46.0457437,14.8410058
China,Huangcun,23.131797,113.407143
Vietnam,Chợ Mới,10.4825247,105.4771084
Indonesia,Sidomulyo,-5.5844754,105.4771084
China,Ralung,28.821772,90.047034
Brazil,Itupiranga,-5.0377529,-49.8547266
China,Zhongzi,39.4587784,76.0001092
Vietnam,Chợ Mới,10.4825247,105.4771084
Brazil,Bebedouro,-20.9400441,-48.4812248
Botswana,Mahalapye,-23.107801,26.8321332
United States,Houston,30.0118752,-95.4463322
Philippines,San Juan,14.565668,121.0317737
Iran,Rāvar,31.2682228,56.7973878
Indonesia,Rangah,-0.223997,111.391098
Czech Republic,Petřvald,49.8309961,18.3894128
Vietnam,Phù Mỹ,14.2157645,109.1166566
China,Xianglong,40.417358,117.500558
Mexico,Guadalupe,19.4838854,-99.1135903
Mexico,San Antonio,35.1595989,-106.566764
China,Shatian,22.919769,113.618216
Honduras,San José,14.24512,-87.958061
Russia,Chistopol’,55.3578708,50.5809058
Netherlands,Ede,52.0442252,5.6463088
Malawi,Makata,-15.7874406,35.030814
Morocco,Timoulilt,32.2066153,-6.4649964
China,Waihai,37.513068,122.120419
Dominican Republic,Pedro García,18.4668424,-69.2888011
Guyana,Skeldon,5.8700491,-57.1492443
Poland,Zabrze,50.3055387,18.7871344
Pakistan,Mūsa Khel Bāzār,30.8614539,69.8196064
Mongolia,Bulgan,48.8231572,103.5218199
China,Wangcao,28.109577,107.269482
China,Hengjiang,23.0685814,112.4496521
Indonesia,Maliang,-7.9666204,112.6326321
Russia,Donskoye,54.9295907,19.9482276
Philippines,Kilim,10.729632,124.795761
Russia,Bol’shoy Karay,56.654278,90.5782439
Nicaragua,El Almendro,11.6794479,-84.7015108
Bosnia and Herzegovina,Maglajani,44.9532375,17.3583673
China,Hongjiaguan,29.474413,110.166477
Nicaragua,El Viejo,12.6583137,-87.1672193
China,Youhua,39.948572,116.420192
Brazil,Baturité,-4.3325997,-38.8773164
China,Luodian,31.415251,121.346638
Thailand,Phra Nakhon Si Ayutthaya,14.4403155,100.383479
Nigeria,Jebba,9.1192516,4.8261424
China,Sanxi,37.2425649,111.8568586
Russia,Novodvinsk,64.3443188,40.8058276
Philippines,Mandaue City,10.334895,123.933309
Poland,Sidzina,49.5904912,19.710237
Indonesia,Krajan Timur Suger Kidul,-8.0526,113.7809
China,Dongxiaokou,40.058197,116.408772
Sweden,Södra Sandby,55.7264965,13.3385773
Peru,Las Palmas,-9.385742,-76.0043731
Ukraine,Luzhany,48.3627105,25.7753797
China,Dunhao,31.33343,108.377449
Brazil,Quaraí,-30.3845133,-56.4488086
China,Zhouji,29.708692,120.246863
Somalia,Hargeysa,9.562389,44.0770134
Brazil,Espinosa,-14.7710261,-43.0971625
Indonesia,Lengkongbarang,-7.5888579,108.2674092
China,Xihuaiba,33.52575,105.91854
France,Rungis,48.7700185,2.3508225
United States,Fort Pierce,27.3980151,-80.3714326
Portugal,Moscavide,38.7760203,-9.1024092
Philippines,San Rafael,14.5697429,121.0190818
Ukraine,Kodyma,48.0999765,29.124263
China,Shayuan,39.9332981,116.4251275
China,Qiaotou,28.168408,120.482198
Mexico,Benito Juarez,25.4967308,-103.5886258
Guatemala,San Lorenzo,15.0319912,-91.7358506
China,Xiabuji,26.885704,120.005147
China,Houbai,31.805855,119.188203
Serbia,Radojevo,45.7140258,20.7713965
Thailand,Nong Yai,13.1285787,101.3658004
Indonesia,Mentoro Wetan,-6.6993,111.4904
Uganda,Bududa,1.0029693,34.3338123
China,Xinshi,23.199183,113.256439
Japan,Sakado,36.6714007,136.7941217
Portugal,Junqueiro,38.6849828,-9.3469171
Central African Republic,Obo,5.3956496,26.4916731
Indonesia,Sumberan,-6.898384,111.885002
Indonesia,Baturinggit Kaja,-8.2464,115.5631
Finland,Hollola,61.0031692,25.3947277
Greece,Thymianá,38.3143554,26.1321521
Yemen,Bayḩān,14.7976183,45.7189412
China,Huoche Xizhan,43.881812,87.409018
Lebanon,Djounie,33.9842691,35.6344491
Indonesia,Gemuruh,-7.4061863,109.6490516
Indonesia,Sila,-8.509828,118.623299
Philippines,Placer,9.6470386,125.602355
Brazil,Mairiporã,-23.3213892,-46.5881754
Indonesia,Bolorejo,-8.053523,111.8598395
China,Huashixia,36.878124,102.149548
Luxembourg,Frisange,49.5178845,6.190803
Sweden,Helsingborg,56.0394628,12.7110264
Japan,Bungo-Takada-shi,33.5617615,131.428737
Russia,Dagestanskiye Ogni,42.1090506,48.1941426
Russia,Temyasovo,52.9850842,58.1242712
Ukraine,Starychi,49.9742883,23.5488713
Japan,Ōsaka-shi,34.6533451,135.5119682
Armenia,Sovetakan,40.106025,44.0519756
China,Fu’an,27.088049,119.647769
Indonesia,Calingcing,-7.2119433,108.1591732
Philippines,Bual,7.18016,124.498942
Cyprus,Dhromolaxia,34.8813447,33.5895956
Finland,Sammatti,60.3198565,23.8212698
Malaysia,Kota Kinabalu,5.9840985,116.0761121
Philippines,President Roxas,7.160227,125.05806
China,Liulin,37.429832,110.88907
Malaysia,Sandakan,5.84561,118.0570561
Bulgaria,Borovo,42.669195,23.2885096
Philippines,Calasgasan,14.13,122.967904
Myanmar,Mawlamyine,16.4543173,97.6439611
Mongolia,Chonogol,45.902561,115.358704
Sweden,Kista,59.4135021,17.9194345
Honduras,Sabá,15.5211125,-86.2209316
Netherlands,'s-Hertogenbosch,51.6861013,5.2933198
China,Zhangshi,37.187796,115.387259
Philippines,Napuro,12.6679167,123.9881642
China,Liuji,32.460037,112.228897
Philippines,Bagacay,13.0748766,123.7526021
Philippines,Paclolo,12.333333,121.1500015
Tunisia,Sousse,35.825603,10.608395
China,Zhoujiaba,30.86006,108.650157
Vietnam,Cẩm Phả,21.0694762,107.3139304
Guatemala,Santa Catarina Barahona,14.549394,-90.789918
Albania,Qukës-Skënderbe,41.0826078,20.4425942
Tunisia,Sidi Bouzid,35.0354386,9.4839392
Indonesia,Baopukang,-8.3086532,123.5183871
Belarus,Hatava,53.7852624,27.6290067
Azerbaijan,Qaraçuxur,40.3999248,49.9789212
United States,Jackson,32.3630585,-90.1475822
Portugal,Vila de Rei,39.6758453,-8.1457625
Indonesia,Paojan,-6.9559495,107.5099087
China,Jidong,45.260412,131.124079
China,Yongfeng,27.318852,115.444319
South Korea,Jenzan,36.2429169,128.2989526
Japan,Iida,38.2122481,140.3246377
Costa Rica,Purral,9.9576111,-84.0284827
Poland,Tomaszów Mazowiecki,51.5418755,19.9724913
Philippines,Matiompong,6.737092,124.600287
Russia,Novokhopërsk,51.0969,41.6252
Afghanistan,Ghurayd Gharamē,36.5222,70.79064
Peru,Santa Catalina,-16.3952829,-71.5367908
Albania,Konispol,39.6611469,20.1789757
Russia,Perelyub,51.8614971,50.3456762
Portugal,Santo António,41.1461878,-8.6107389
Venezuela,Los Dos Caminos,10.4980067,-66.8335096
Sweden,Degeberga,55.8166469,14.0959536
South Africa,Volksrust,-27.1192795,29.9682719
Panama,Guabito,9.4779595,-82.5943072
Nigeria,Wushishi,9.7220855,6.1112878
Albania,Xibër-Murrizë,41.45472,20.02556
China,Longhua,22.656408,114.019351
Russia,Seredka,58.1420431,28.203342
China,Jiangbu,33.1401715,119.7889248
Azerbaijan,Zabrat,40.4824514,49.946315
Saudi Arabia,Al Majāridah,19.1284443,41.9246083
France,Montrouge,44.9532555,2.8218035
Morocco,Aoufous,31.6890813,-4.1788953
Burkina Faso,Manga,11.66503,-1.0634024
Russia,Pogranichnyy,51.7362077,54.9650811
South Africa,Volksrust,-27.1192795,29.9682719
China,Zhangping,25.290184,117.419998
Samoa,Mulifanua,-13.8474624,-172.0448001
Russia,Dedenëvo,56.2421713,37.5166323
China,Fengshan,24.546876,107.04219
Belarus,Lyozna,55.024145,30.8005553
China,Xingren,25.435183,105.186237
Cameroon,Djohong,6.8344177,14.6966832
France,Melun,48.5129473,2.6780176
Philippines,Calape,9.8411782,123.9121342
China,Xiapu,26.885704,120.005147
China,Hailin,44.594213,129.380481
Portugal,Duas Igrejas,41.4745288,-6.3647312
Rwanda,Gikongoro,-2.4706347,29.5774616
China,Chengbei,36.650038,101.766228
Philippines,Talipan,13.9641503,121.655933
Zambia,Mwense,-10.3869996,28.7023068
Sweden,Edsbyn,61.3377349,16.0344869
Poland,Czyżowice,49.9846987,18.4044199
China,Delong,30.629423,103.963147
China,Shuanghekou,30.975286,105.190522
Mexico,Lazaro Cardenas,18.2886378,-99.4526826
Philippines,Binucayan,8.164085,125.8131123
Afghanistan,Jalālābād,34.4198488,70.4729434
Ireland,Cabinteely,53.2599034,-6.1603828
Philippines,San Esteban,14.5570389,121.017148
Bangladesh,Sātkhira,22.3154812,89.1114525
China,Luxia,27.171521,119.227978
Jordan,Al Mazār,31.067952,35.6955945
Indonesia,Kaduketug,-6.598,106.2248
China,Huizhou,23.112257,114.415801
Ukraine,Tsyurupyns’k,46.6199321,32.7072675
Brazil,Tobias Barreto,-11.1851883,-38.0005207
France,Créteil,48.7997482,2.4699259
Poland,Halinów,52.2283049,21.355139
Sweden,Kolmården,58.6696023,16.37105
Colombia,Cartagena,10.9819737,-74.9438915
China,Shuangqiao,40.97465,117.943348
Uzbekistan,Khiwa,41.3895075,60.3414529
Greece,Árta,39.1582421,20.9876839
Russia,Glotovka,53.948639,46.6995979
Syria,Al Ḩāḑir,35.9928004,37.0507676
China,Fengjiang,27.948308,109.599191
Mexico,Santiago,25.4166153,-100.1591213
Indonesia,Pasirhuni,-7.0970638,107.5771444
China,Obo,41.7941883,123.3695459
China,Qincheng,40.232604,116.410742
China,Baliang,25.237566,106.763895
Ecuador,Puerto Francisco de Orellana,-0.4616728,-76.9931074
Mexico,Santa Clara,19.2926509,-99.6487518
Latvia,Limbaži,57.5129829,24.721996
Costa Rica,Nicoya,10.142762,-85.454983
Armenia,Ashtarak,40.2928735,44.3505077
Sweden,Charlottenberg,59.884842,12.2993128
Afghanistan,Paghmān,34.5911393,68.9569399
Paraguay,Repatriación,-25.5376671,-55.9901675
Costa Rica,Naranjo,10.098232,-84.405668
China,Jianjiang,24.781681,118.552365
Azerbaijan,Maştağa,40.5329933,50.0035678
China,Miaojie,27.6673175,114.4109921
China,Luoyuan,26.489558,119.549776
China,Nu’erbage,37.032706,80.34115
Albania,Maliq,40.7093697,20.6973469
Indonesia,Citatah Kaler,-6.859269,107.4702845
Uzbekistan,Shahrisabz Shahri,41.3047616,69.2817267
Portugal,Macedo de Cavaleiros,41.5370005,-6.9617993
Greece,Oinoússes,38.5193772,26.2363678
Sweden,Hässelby,59.3609203,17.841489
Portugal,Ribaldeira,39.0427929,-9.193864
China,Liping,26.230385,109.136724
Russia,Bryukhovetskaya,45.8029045,38.9986184
France,Creil,49.243003,2.510652
Ireland,Dungarvan,53.3788495,-6.1822287
Guatemala,Zaragoza,14.6297081,-90.9181849
Bosnia and Herzegovina,Radišići,43.2270189,17.536297
Indonesia,Tegalsari,-8.401854,114.118103
Malta,Haz-Zebbug,35.873533,14.457299
Cameroon,Kousséri,12.087083,15.0148322
China,Shuanggang,39.042852,117.318781
Malaysia,Putrajaya,2.9329721,101.6259842
Sweden,Överkalix,66.2185015,23.0524409
Indonesia,Campaka,-6.4698493,107.5150139
Philippines,Buang,13.3023013,123.6374208
Poland,Prostki,53.6985264,22.4329027
Netherlands,Best,51.513694,5.361629
France,Seynod,45.875212,6.087112
Finland,Rauma,61.1066573,21.4727058
France,Besançon,47.2154159,5.9471867
United States,Houston,29.643475,-95.4253757
Tanzania,Songea,-10.6462694,35.6423527
Russia,Tonkino,57.3725,46.4583999
Indonesia,Watulabara,-9.5295,119.2674
Norway,Kristiansand S,59.9384597,10.7533605
Cyprus,Xylotymbou,35.0150933,33.7405967
Argentina,Piquillín,-42.814251,-65.0425829
China,Luofang,34.620202,112.453926
China,Panjing,41.119997,122.070714
Philippines,San Felipe Old,11.4222249,122.055373
Indonesia,Karangsari,-6.427987,110.9561
Poland,Smolec,51.0720479,16.881153
Sierra Leone,Jojoima,8.2596,-11.1914
North Korea,Yuktae-dong,40.026852,128.161102
Indonesia,Mlawe,-7.051,112.4232
Macedonia,Ранковце,42.16964,22.11617
China,Ma’an,30.145729,120.589457
China,Gongnong,47.31878,130.274684
Cyprus,Rizokárpaso,35.6176824,34.4087307
Russia,Tëploye,52.2820161,36.0199456
Indonesia,Lowotukan,-8.3120496,123.2814017
China,Huili Chengguanzhen,26.662155,102.242653
Botswana,Sebina,-20.8097593,27.2029363
Latvia,Zilupe,56.387721,28.1195609
Azerbaijan,Altıağac,40.8762849,49.0273549
China,Danan,41.7815196,123.4582948
Kazakhstan,Balqash,46.8435126,74.9809805
United States,Stockton,38.0434058,-121.2969674
Canada,Ucluelet,48.94153,-125.54635
France,Amiens,49.8921732,2.3000664
Indonesia,Sukadana,-1.2468663,110.0926112
Indonesia,Kalimeneng,-7.6659463,109.8946083
Indonesia,Cogreg Wetan,-6.4610391,106.6989632
Somalia,Dujuuma,1.2540403,42.5779182
Greece,Kalpáki,39.886025,20.6256658
China,Weishan,25.227212,100.307174
Mali,Timbuktu,16.7665887,-3.0025615
Indonesia,Ngenden,-7.4547836,110.5781567
Malaysia,Kuala Terengganu,5.329576,103.1369108
Russia,Turgenevo,54.8630265,46.3388109
Bulgaria,Straldzha,42.5387912,26.6831949
China,Huangpi,30.882557,114.375743
Japan,Kodamachō-kodamaminami,36.1812392,139.1311901
Lesotho,Qacha’s Nek,-30.1114565,28.678979
Latvia,Kandava,57.033151,22.7767899
Japan,Miyata,38.5779674,140.8225484
China,Zhoujia,25.575165,111.824739
Brazil,Piúma,-20.8420055,-40.7357215
China,Xinglongquan,37.546455,121.369038
Grenada,Saint George's,12.0560975,-61.7487996
Finland,Joroinen,62.2969314,27.1753576
France,Troyes,48.294118,4.0675057
Russia,Gamovo,57.8745672,56.0925161
Indonesia,Delod Pangkung,-8.38225,114.63643
China,Pingtan,25.49872,119.790168
China,Chengguan,29.654838,91.140552
France,Alfortville,48.8132669,2.4114143
Indonesia,Pondokunyur,-7.3887,108.6759
Portugal,Rio de Moinhos,39.4753881,-8.243037
Netherlands,Haarlem,52.3626877,4.6195236
China,Huangzhawan,40.385837,97.06483
Russia,Ketovo,55.3479146,65.323903
China,Huolianpo,29.8812968,111.4535119
China,Hanyuan,29.344616,102.652483
France,Brétigny-sur-Orge,48.6066876,2.3023878
China,Erjia,32.022005,121.186614
Colombia,Plato,9.791337,-74.7975249
Kazakhstan,Kyzylorda,44.8488314,65.4822686
China,Dongdai,26.241987,119.618419
China,Baoshui,30.513598,110.361715
China,Yanxi,28.127664,110.90203
Philippines,Apalit,14.960458,120.755354
Poland,Wrząsowice,49.970045,19.944654
Philippines,Guinabsan,8.9085671,125.4008484
Trinidad and Tobago,Scarborough,11.1869803,-60.7301511
Egypt,Al Qanāţir al Khayrīyah,30.1902447,31.1384342
Democratic Republic of the Congo,Kipushi,-11.7602273,27.2499749
China,Jiuheyuan,29.604453,112.385429
Canada,Arnprior,45.4331407,-76.3609305
South Africa,Rustenburg,-26.1026584,27.6952713
Sri Lanka,Matara,5.9368109,80.5148127
China,Dingbu,31.284181,119.160586
China,Anjihai,44.362833,85.35698
France,Laval,48.0762327,-0.7609009
Peru,Junín,-11.335798,-75.3412179
Japan,Chiba,34.8917477,138.1627422
Sweden,Gävle,60.706979,17.1401083
Japan,Kajiki,31.739255,130.670516
Vietnam,Bến Tre,10.1081553,106.4405872
Peru,Salaverry,-8.2141205,-78.9768999
Philippines,Basicao Coastal,13.034203,123.449929
China,Dougou,34.295348,119.119278
Thailand,Wang Saphung,17.2743265,101.7523854
China,Huadian,42.972096,126.746309
South Africa,Wartburg,-29.4337624,30.5803264
Indonesia,Tawangrejo,-8.035636,111.9969626
Russia,Magnitka,55.3377048,59.6818456
Indonesia,Cikawung,-6.6047761,108.024301
South Korea,Kyonju,35.8561719,129.2247477
China,Jiangcun,22.579117,113.081508
Philippines,Tabinay,13.490046,120.960159
China,Rongkou,37.646108,120.477813
Tanzania,Kigoma,-4.8824092,29.6615055
Indonesia,Cantuk Kidul,-8.2986261,114.2301337
Netherlands,Heerlen,50.9168212,5.9799297
Indonesia,Cikiray,-6.8651955,106.5849256
Kenya,Kihancha,-1.1939843,34.6165033
Dominican Republic,Salcedo,19.3947363,-70.5263459
Tunisia,Ariana,36.8665367,10.1647233
Bermuda,Hamilton,32.2945837,-64.7858887
Czech Republic,Boršice,49.0733587,17.3859903
Azerbaijan,Beylagan,39.7723073,47.6154166
Cyprus,Kokkini Trimithia,35.1529042,33.2110414
Russia,Nazran’,43.2038704,44.8434843
China,Dahua,23.736457,107.998149
China,Tonggu,28.520769,114.371172
China,Xinzhaiping,28.929108,110.069347
Peru,Yanac,-8.620944,-77.86676
France,Blois,47.594843,1.3155028
Indonesia,Barang,-8.2202049,111.4708135
Brazil,Catu,-12.3713805,-38.3852123
China,Sanshandao,31.219568,118.268101
Poland,Waśniów,50.8866749,21.2296066
China,Takeshiken,46.18869,90.80581
Vietnam,Tân Sơn,21.1665519,104.9894851
Venezuela,La Unión,10.4132061,-66.8052202
Philippines,San Jose,14.5699334,121.0204582
El Salvador,La Unión,13.3323464,-87.8500644
Indonesia,Bebae,-10.5398609,121.9387783
China,Minle,38.430793,100.812859
Russia,Polunochnoye,60.869764,60.437305
Indonesia,Ngondokandawu,-9.6602,119.0763
China,Hayan Hudong,30.762251,114.0189716
Russia,Chernyanka,50.9422707,37.8024687
China,Zhouhe,31.613609,115.066889
Thailand,Lom Sak,16.7733926,101.2451095
China,Zhuanshui,23.992676,115.703598
Nepal,Tānsen,27.861901,83.5443287
Poland,Kiełczów,51.1529103,17.2602307
Canada,Millet,53.09697,-113.4729375
Indonesia,Wailebe,-8.3635208,123.0085415
Honduras,Potrerillos,15.2307976,-87.9653335
Indonesia,Jalasenga,-7.974394,112.671469
Kyrgyzstan,Ala-Buka,41.411881,71.4833652
Tuvalu,Fakaifou Village,-8.51758,179.20094
Latvia,Valdemārpils,57.3690549,22.591118
Slovenia,Bovec,46.3376387,13.5516829
China,Longtan,25.075123,117.017536
Indonesia,Ngroto,-7.1240121,111.6049608
Philippines,Patnongon,10.9322366,121.9864492
Colombia,Sibaté,4.485011,-74.259334
China,Leiyang,26.422277,112.859759
Indonesia,Kulutan,-6.7974032,111.4708135
Philippines,Hingatungan,10.5839407,125.1861057
Russia,Severomorsk,69.0603424,33.4168559
Philippines,Luna,14.5968528,121.0670507
China,Zuolan,32.142922,108.460743
Dominican Republic,Mella,18.4305759,-69.9663985
China,Fanrong,29.561775,106.568971
Indonesia,Kampungsusah,-8.3052,123.237
Japan,Ōzu,32.8872867,130.8841776
Peru,Lima,-12.0463731,-77.042754
Papua New Guinea,Lorengau,-2.0349854,147.279039
China,Beihe,38.627867,114.506303
United Kingdom,Weston,50.994689,-0.964804
Mauritius,Cap Malheureux,-19.986874,57.6127424
China,Huanglian,42.0595836,123.4808607
Russia,Ovsyanka,55.9562612,92.5796162
Greece,Aigínio,40.4989376,22.5415237
Mauritius,Le Hochet,-20.1379319,57.527801
Ukraine,Kostyantynivka,48.5239429,37.7075811
China,Haixing,38.143169,117.497651
Argentina,Huinca Renancó,-31.4540779,-64.1673375
Sweden,Tomelilla,55.5449766,13.953453
Czech Republic,Vřesina,49.9469881,18.1870189
China,Shuangbaiyang,34.5724074,107.0351315
United States,Tallahassee,30.4124334,-84.2831162
Czech Republic,Sadská,50.1359658,14.9863398
Japan,Funabashi,37.9909201,140.1660258
Russia,Vol’nyy Aul,43.475292,43.61997
Finland,Kouvola,60.7651227,26.7869193
Canada,Napanee Downtown,43.6505222,-79.3990401
Brazil,Guapimirim,-22.5961542,-42.9611571
Canada,Waterloo,45.35008,-72.51582
Indonesia,Krojo,-6.076643,106.4288088
Russia,Kirovsk,67.6107356,33.6724007
Russia,Kolyubakino,55.6691322,36.5321926
Philippines,Santa Brigida,14.68778,120.9760496
South Africa,Messina,-22.3812506,30.0318547
Belarus,Ramanavichy,53.8653,30.5597
Philippines,Santo Niño,14.3839328,121.050126
Equatorial Guinea,Evinayong,1.4403613,10.5718086
China,Hongwei,41.217649,123.1966721
Egypt,Dhahab,28.5091355,34.5136344
Georgia,Agara,42.0387882,43.8242982
China,Dianfang,22.5341348,114.1162219
China,Miao’ergou,45.51596,83.867628
Russia,Ulety,51.3591174,112.484985
Philippines,Dao,14.5636407,121.0134927
Indonesia,Longnawang,1.8480062,114.8923533
China,Qiaoshi,26.693697,115.313327
Slovenia,Zgornje Pirniče,46.1428433,14.4322399
Poland,Korczyna,49.7549498,21.8253619
Portugal,Carrasqueira,40.6954986,-8.4593865
Syria,Al Manşūrah,33.3585811,36.2264681
Albania,Shirgjan,41.0522859,20.0524105
Libya,Banī Walīd,31.7975831,14.053676
Canada,Gjoa Haven,68.62602,-95.87836
France,Angoulême,45.6258385,0.0629891
Portugal,Silveiros,41.4655177,-8.577596
China,Huoxian,35.429135,104.030413
Sweden,Lidköping,58.4986113,13.1391427
Brazil,Colatina,-19.5365508,-40.6258001
France,Fresnes,48.759003,2.323941
Philippines,Almaguer North,16.3513442,121.0927689
Botswana,Selebi-Phikwe,-22.0028763,27.8428651
Mongolia,Dzüyl,46.7593351,103.5184746
Poland,Pawonków,50.6906104,18.5510673
Colombia,Pasto,1.2296124,-77.3439283
China,Shaxi,26.312444,99.850365
Japan,Gushikawa,26.3577675,127.8691991
Malaysia,Petaling Jaya,3.108333,101.6419959
Russia,Tuzha,57.6067536,47.9368725
Nigeria,Kibiya,11.5291917,8.6573084
China,Sifangxi,29.654069,110.176918
Philippines,Dimataling,7.516342,123.345085
Colombia,Mutatá,7.3423696,-76.5719414
Indonesia,Pelabuhan Dagang,-1.133947,103.0702646
China,Dupi,40.1465349,117.1112743
Russia,Yekaterinovka,42.9285549,133.0448635
United States,Washington,38.889471,-77.0578855
Philippines,Ugac Sur,17.6102139,121.7177272
Portugal,Antas,38.9908943,-9.0471651
Philippines,Acao,14.7127327,121.0279622
Russia,Zvëzdnyy,54.194145,37.6912329
Portugal,Oliveira de Frades,40.7322554,-8.1737805
Philippines,Murcia,10.554131,123.0143845
France,Toul,48.679041,5.8805771
China,Zaoshi,26.6674,113.449709
China,Qingshuitang,23.505032,110.454177
Mongolia,Undurkhaan,47.3178096,110.6535448
China,Jiekeng,28.441557,120.41341
Morocco,Hassi Berkane,34.839107,-2.8670625
Colombia,Campamento,6.979498,-75.2966019
Japan,Shiozawa,38.0974088,140.6725677
Brazil,Cabrobó,-8.455768,-39.4035876
Indonesia,Banjar Teguan,-8.5067,115.2298
Philippines,Perez,14.689167,120.9849216
Belarus,Kamyanyets,52.3979454,23.8257811
China,Liuduzhai,27.356747,110.944708
Indonesia,Kutasari,-7.3170603,109.2891005
United States,Tacoma,47.2457073,-122.4773432
Sweden,Ängelholm,56.2716397,12.8632487
Sudan,Kutum,14.2025174,24.6638251
China,Yetang,24.192468,115.665617
Indonesia,Karangsari,-6.427987,110.9561
Bosnia and Herzegovina,Sladna,44.7332232,18.4100442
Sweden,Ängelholm,56.2716397,12.8632487
Russia,Kungur,57.414834,56.969379
Brazil,Rio das Ostras,-22.4206096,-41.8625084
France,Saint-Étienne,43.1598675,-0.8926089
China,Huaitu,23.404165,113.220218
Czech Republic,Bludov,49.9396574,16.9280562
Honduras,San Jerónimo,14.6276215,-87.6075294
France,Courtaboeuf,48.695223,2.190167
Indonesia,Tanjungbatu,0.663325,103.4569571
Malaysia,Kota Kinabalu,5.9840985,116.0761121
Burundi,Muyinga,-2.8409385,30.3464333
China,Linchen,35.025793,110.998109
Brazil,Aragarças,-15.8958471,-52.2516426
Indonesia,Cicurug,-6.8447302,108.2427764
Bulgaria,Sofia,42.6978209,23.3245641
China,Xiaojinkou,23.170455,114.419667
Democratic Republic of the Congo,Gbadolite,4.2891931,21.0102737
Russia,Sosnovka,54.1347287,33.2921685
Mongolia,Erdenet,49.054082,104.0716533
Indonesia,Daleman,-7.7276103,110.8582722
France,Domont,49.0285391,2.3236877
Indonesia,Praya,-8.6837074,116.2895173
Canada,Bonavista,48.64989,-53.11474
Panama,Cartí Suitupo,9.47417,-78.96667
Brazil,Formiga,-20.5923566,-45.4874873
Democratic Republic of the Congo,Lisala,2.1701072,21.4872092
Indonesia,Anyar,-6.0924606,105.9112424
China,Zhangbagou,34.198019,108.879265
Netherlands,Bussum,52.2766397,5.162358
China,Songdong,35.8939566,117.9249002
Latvia,Berģi,56.9934009,24.3022789
Norway,Porsgrunn,59.1395,9.65523
China,Shuijiang,24.9663939,102.6354187
Brazil,Pinhais,-25.4021046,-49.1347813
Indonesia,Babakanjaya,-6.2434505,106.3684552
Russia,Pyt-Yakh,60.9842542,72.6081038
Czech Republic,Studenec,49.2001199,16.0648122
Philippines,Tagbacan Ibaba,13.5920158,122.320801
Russia,Shcherbinka,55.536259,37.5985159
Indonesia,Nanggorak,-7.3171858,108.0997955
Colombia,El Charco,2.0560112,-77.5160788
China,Yinghai,39.756206,116.452296
Philippines,Concepcion,14.6688068,121.1138058
Indonesia,Jugantang,-7.1004,108.3301
Peru,Chumpi,-15.10129,-73.754257
United States,Lakeland,28.0964047,-81.9207423
Russia,Nikolayevsk,53.149977,140.6634789
Japan,Yōkaichiba,35.7055251,140.5585737
Philippines,Calanogas,8.1243943,124.0495898
Ukraine,Vashkivtsi,48.3842974,25.5058522
Bosnia and Herzegovina,Skokovi,45.0317123,15.9142627
Ukraine,Kivsharivka,49.6297207,37.6810464
Montenegro,Spuž,42.5137414,19.1954375
Jordan,Safi,31.975951,35.853029
China,Yu’erhong,39.646905,97.130625
China,Zhuanqukou,40.767544,114.886335
Indonesia,Luthu,3.541868,98.729681
Philippines,Isabela,16.9822955,121.644372
Indonesia,Dorupare,-8.8229,121.053
Sweden,Göteborg,57.7385277,12.0633439
North Korea,Pyongyang,39.0392193,125.7625241
Brazil,Piraquara,-25.4426635,-49.0628847
Portugal,Pinhal Novo,38.6382751,-8.9095861
Brazil,Rio Negrinho,-26.2499033,-49.518067
Vietnam,Phùng,21.0877573,105.6603149
China,Shuiyin,31.1707547,121.3963702
Indonesia,Cikaung,-6.3079232,107.172085
Indonesia,Montasik,5.465831,95.4227312
Argentina,Wenceslao Escalante,-31.4603741,-64.1959217
China,Dabagou,41.103983,114.05056
China,Zhendong,34.137139,120.227624
Czech Republic,Písečná,50.2689038,17.2529709
Peru,San Isidro,-12.0971829,-77.032585
China,Dajin,22.266473,111.11122
Angola,Luau,-10.7072554,22.22946
Portugal,Vale da Bajouca,39.8914201,-8.767762
Sweden,Kungsör,59.3938804,15.8607653
China,Yaopi,26.879864,113.646181
Tanzania,Kondoa,-4.9068418,35.7898106
France,Vandœuvre-lès-Nancy,48.6563441,6.1856748
Azerbaijan,Çobansığnaq,40.7531415,45.7400681
China,Hongxingqiao,34.007974,119.839212
Albania,Miras,40.5072039,20.9253299
China,Lishu,43.30706,124.33539
